{
    "offices": [
        {
            "id": 1,
            "name": "Hospital Dr. Raúl F. Larcade",
            "address": "Av Pres. Juan Domingo Perón 2311, San Miguel.",
            "phoneNumber": "4451-5828",
            "latitude": "-34.53465663057981",
            "longitude": "-58.7226222731695"
        },
        {
            "id": 2,
            "name": "Hospital San Miguel Arcángel",
            "address": "Mattaldi 1057, Bella Vista.",
            "phoneNumber": "4451-3151",
            "latitude": "-34.561824587372314",
            "longitude": "-58.67874686951985"
        },
        {
            "id": 3,
            "name": "Hospital Santa María",
            "address": "Defensa y Balbín, Santa María.",
            "phoneNumber": "4664-4652",
            "latitude": "-34.56328977069551",
            "longitude": "-58.73785073607584"
        },
        {
            "id": 4,
            "name": "Hospital Dr. Alberto Duhau",
            "address": "Gral. Lavalle 2066, José C. Paz",
            "phoneNumber": "2120-1600",
            "latitude": "-34.522743329576095",
            "longitude": "-58.7531471670156"
        },
        {
            "id": 5,
            "name": "Hospital Mercante",
            "address": "René Favaloro 4750, José C. Paz",
            "phoneNumber": "02320–440000",
            "latitude": "-34.51602189503587",
            "longitude": "-58.74064246079355"
        },
        {
            "id": 6,
            "name": "Unidad de Pronta Atención 15",
            "address": "Ayacucho e/ Lima y Naciones Unidas, José C. Paz",
            "phoneNumber": "02320–440000",
            "latitude": "-34.51802020154591",
            "longitude": "-58.806255958603245"
        },
        {
            "id": 7,
            "name": "Hospital De Trauma Federico Abete",
            "address": "Miraflores 123, Pablo Nogués.",
            "phoneNumber": "4469-9600",
            "latitude": "-34.495682080848304",
            "longitude": "-58.7090653016838"
        },
        {
            "id": 8,
            "name": "Hospital Polo Malvinas",
            "address": "Av. Pres. Arturo Umberto Illia 5200,Los Polvorines.",
            "phoneNumber": "4469-9600",
            "latitude": "-34.52018014217939",
            "longitude": "-58.71710899733035"
        }


    ]
}